[
  { "pref_name": "Hokkaido", "lat": "43.064359", "lon": "141.347449" },
  { "pref_name": "Aomori", "lat": "40.824294", "lon": "140.740054" },
  { "pref_name": "Iwate", "lat": "39.70353", "lon": "141.152667" },
  { "pref_name": "Miyagi", "lat": "38.268737", "lon": "140.872183" },
  { "pref_name": "Akita", "lat": "39.718175", "lon": "140.103356" },
  { "pref_name": "Yamagata", "lat": "38.240127", "lon": "140.362533" },
  { "pref_name": "Fukushima", "lat": "37.750146", "lon": "140.466754" },
  { "pref_name": "Ibaraki", "lat": "36.341817", "lon": "140.446796" },
  { "pref_name": "Tochigi", "lat": "36.56575", "lon": "139.883526" },
  { "pref_name": "Gunma", "lat": "36.391205", "lon": "139.060917" },
  { "pref_name": "Saitama", "lat": "35.857771", "lon": "139.647804" },
  { "pref_name": "Chiba", "lat": "35.604563", "lon": "140.123179" },
  { "pref_name": "Tokyo", "lat": "35.689185", "lon": "139.691648" },
  { "pref_name": "Kanagawa", "lat": "35.447505", "lon": "139.642347" },
  { "pref_name": "Niigata", "lat": "37.901699", "lon": "139.022728" },
  { "pref_name": "Toyama", "lat": "36.695274", "lon": "137.211302" },
  { "pref_name": "Ishikawa", "lat": "36.594729", "lon": "136.62555" },
  { "pref_name": "Fukui", "lat": "36.06522", "lon": "136.221641" },
  { "pref_name": "Yamanashi", "lat": "35.665102", "lon": "138.568985" },
  { "pref_name": "Nagano", "lat": "36.651282", "lon": "138.180972" },
  { "pref_name": "Gifu", "lat": "35.39116", "lon": "136.722204" },
  { "pref_name": "Shizuoka", "lat": "34.976987", "lon": "138.383057" },
  { "pref_name": "Aichi", "lat": "35.180247", "lon": "136.906698" },
  { "pref_name": "Mie", "lat": "34.730547", "lon": "136.50861" },
  { "pref_name": "Shiga", "lat": "35.004532", "lon": "135.868588" },
  { "pref_name": "Kyoto", "lat": "35.0209962", "lon": "135.7531135" },
  { "pref_name": "Osaka", "lat": "34.686492", "lon": "135.518992" },
  { "pref_name": "Hyogo", "lat": "34.69128", "lon": "135.183087" },
  { "pref_name": "Nara", "lat": "34.685296", "lon": "135.832745" },
  { "pref_name": "Wakayama", "lat": "34.224806", "lon": "135.16795" },
  { "pref_name": "Tottori", "lat": "35.503463", "lon": "134.238258" },
  { "pref_name": "Shimane", "lat": "35.472248", "lon": "133.05083" },
  { "pref_name": "Okayama", "lat": "34.66132", "lon": "133.934414" },
  { "pref_name": "Hiroshima", "lat": "34.396033", "lon": "132.459595" },
  { "pref_name": "Yamaguchi", "lat": "34.185648", "lon": "131.470755" },
  { "pref_name": "Tokushima", "lat": "34.065732", "lon": "134.559293" },
  { "pref_name": "Kagawa", "lat": "34.34014", "lon": "134.04297" },
  { "pref_name": "Ehime", "lat": "33.841649", "lon": "132.76585" },
  { "pref_name": "Kochi", "lat": "33.55969", "lon": "133.530887" },
  { "pref_name": "Fukuoka", "lat": "33.606767", "lon": "130.418228" },
  { "pref_name": "Saga", "lat": "33.249367", "lon": "130.298822" },
  { "pref_name": "Nagasaki", "lat": "32.744542", "lon": "129.873037" },
  { "pref_name": "Kumamoto", "lat": "32.790385", "lon": "130.742345" },
  { "pref_name": "Oita", "lat": "33.2382", "lon": "131.612674" },
  { "pref_name": "Miyazaki", "lat": "31.91109", "lon": "131.423855" },
  { "pref_name": "Kagoshima", "lat": "31.560219", "lon": "130.557906" },
  { "pref_name": "Okinawa", "lat": "26.211538", "lon": "127.681115" }
]
